[
    {
        "name": "スベリ坂",
        "address": "浅川字ノドロ４２－１０",
        "lat": 33.622248,
        "lng": 134.3629647
    },
    {
        "name": "浅川東（裏山）",
        "address": "浅川字ノドロ６－３",
        "lat": 33.62197270000001,
        "lng": 134.3624627
    },
    {
        "name": "江音寺（～愛宕山）",
        "address": "浅川字川ヨリ西１６９－４",
        "lat": 33.6231324,
        "lng": 134.3610327
    },
    {
        "name": "愛宕山（浅川）",
        "address": "浅川字川ヨリ西１６９－４",
        "lat": 33.6231324,
        "lng": 134.3610327
    },
    {
        "name": "東泉寺（～裏山高台）",
        "address": "浅川字新町３０－３",
        "lat": 33.636322,
        "lng": 134.350748
    },
    {
        "name": "弁天神社（浅川）",
        "address": "浅川字新町３０－３",
        "lat": 33.636322,
        "lng": 134.350748
    },
    {
        "name": "観音庵",
        "address": "浅川字イナ４７－１",
        "lat": 33.6279027,
        "lng": 134.358533
    },
    {
        "name": "取池避難所",
        "address": "浅川字イナ４－４",
        "lat": 33.6275518,
        "lng": 134.3619927
    },
    {
        "name": "大田（県道浅川港線）",
        "address": "浅川字大田７１－２",
        "lat": 33.6296816,
        "lng": 134.3633094
    },
    {
        "name": "柳ノ内",
        "address": "浅川字柳ノ内１０９",
        "lat": 33.623313,
        "lng": 134.348941
    },
    {
        "name": "天神前",
        "address": "浅川字天神前７－３",
        "lat": 33.6333586,
        "lng": 134.3673059
    },
    {
        "name": "粟ノ浦神社",
        "address": "浅川字粟浦口５３－２",
        "lat": 33.6354801,
        "lng": 134.3691684
    },
    {
        "name": "加島（森田宅裏山）",
        "address": "浅川字別当７－１０",
        "lat": 33.644221,
        "lng": 134.349549
    },
    {
        "name": "加島城趾",
        "address": "浅川字鍛冶屋４４－２",
        "lat": 33.6345366,
        "lng": 134.3759657
    },
    {
        "name": "鯖瀬",
        "address": "浅川字中相２１－２５",
        "lat": 33.6468721,
        "lng": 134.3854348
    },
    {
        "name": "鯖床",
        "address": "浅川字天神前１４－１",
        "lat": 33.63186,
        "lng": 134.368462
    },
    {
        "name": "大田地区高台",
        "address": "浅川字大田３８－2",
        "lat": 33.6314278,
        "lng": 134.363742
    },
    {
        "name": "海南文化村（～高台）",
        "address": "四方原字広谷２０",
        "lat": 33.6106104,
        "lng": 134.3532144
    },
    {
        "name": "海南保育所横避難所",
        "address": "四方原字広谷１９",
        "lat": 33.6106104,
        "lng": 134.3532144
    },
    {
        "name": "まぜのおか",
        "address": "浅川字西福良４３",
        "lat": 33.6208332,
        "lng": 134.3715777
    },
    {
        "name": "大里台高台",
        "address": "大里字五反田９２－５",
        "lat": 33.6170669,
        "lng": 134.375076
    },
    {
        "name": "海陽中学校",
        "address": "大里字松原３４-８３",
        "lat": 33.6066848,
        "lng": 134.3635857
    },
    {
        "name": "海部高等学校",
        "address": "大里字古畑５８-２",
        "lat": 33.6072537,
        "lng": 134.3568956
    },
    {
        "name": "海南小学校",
        "address": "四方原字旭町５０",
        "lat": 33.6068636,
        "lng": 134.3544981
    },
    {
        "name": "海陽町役場海南庁舎",
        "address": "大里字上中須１２８",
        "lat": 33.6020516,
        "lng": 134.3519955
    },
    {
        "name": "愛宕山（大里）",
        "address": "大里字片山２１－１",
        "lat": 33.6114414,
        "lng": 134.363851
    },
    {
        "name": "西法寺",
        "address": "多良字片山９０－１",
        "lat": 33.6044124,
        "lng": 134.3457369
    },
    {
        "name": "久米山高台（馬谷高台）",
        "address": "大里字奥馬谷３３",
        "lat": 33.6139283,
        "lng": 134.3620784
    },
    {
        "name": "五反田（ごんげんさん高台）",
        "address": "大里字五反田",
        "lat": 33.6170669,
        "lng": 134.375076
    },
    {
        "name": "五反田地区高台（さつき台前）",
        "address": "大里字五反田９１－１",
        "lat": 33.6170669,
        "lng": 134.375076
    },
    {
        "name": "法華寺（～高台）",
        "address": "鞆浦字東町１１５",
        "lat": 33.5915716,
        "lng": 134.3623738
    },
    {
        "name": "東浜",
        "address": "鞆浦字東町１５５－３",
        "lat": 33.5918326,
        "lng": 134.3609215
    },
    {
        "name": "東上町",
        "address": "鞆浦字東町１４７",
        "lat": 33.5915716,
        "lng": 134.3623738
    },
    {
        "name": "万照寺（愛宕山）",
        "address": "鞆浦字大宮２９－１",
        "lat": 33.5898234,
        "lng": 134.3600103
    },
    {
        "name": "住吉神社",
        "address": "鞆浦字立岩９",
        "lat": 33.5924644,
        "lng": 134.3591664
    },
    {
        "name": "多善寺（～観音堂）",
        "address": "鞆浦字高倉３－２",
        "lat": 33.5920903,
        "lng": 134.3579548
    },
    {
        "name": "善称寺（～観音堂）",
        "address": "鞆浦字高倉３－２",
        "lat": 33.5920903,
        "lng": 134.3579548
    },
    {
        "name": "トワニー海部工場跡",
        "address": "鞆浦字高倉３１－１",
        "lat": 33.59194,
        "lng": 134.3574989
    },
    {
        "name": "城山山下避難所",
        "address": "鞆浦字山下９－１",
        "lat": 33.5947395,
        "lng": 134.3597148
    },
    {
        "name": "城山堤ノ外避難所",
        "address": "鞆浦字山下９－１",
        "lat": 33.5947395,
        "lng": 134.3597148
    },
    {
        "name": "薬師寺（～明現神社）",
        "address": "奥浦字町内１９２－１",
        "lat": 33.59417,
        "lng": 134.354045
    },
    {
        "name": "明現神社（町内側）",
        "address": "奥浦字町内１９２－１",
        "lat": 33.59417,
        "lng": 134.354045
    },
    {
        "name": "妙見山公園（新町側）",
        "address": "奥浦字町内１９２－１",
        "lat": 33.59417,
        "lng": 134.354045
    },
    {
        "name": "国道鹿ヶ谷高台",
        "address": "奥浦字鹿ヶ谷１２－２",
        "lat": 33.5903536,
        "lng": 134.3532144
    },
    {
        "name": "六地蔵前広場（～散策道）",
        "address": "奥浦字西分３８－１",
        "lat": 33.594446,
        "lng": 134.3519289
    },
    {
        "name": "西山墓地散策道",
        "address": "奥浦字脇ノ宮１０８－１",
        "lat": 33.5967242,
        "lng": 134.3498094
    },
    {
        "name": "遊遊ＮＡＳＡ",
        "address": "奥浦字鹿ヶ谷５８－３",
        "lat": 33.5880033,
        "lng": 134.3539708
    },
    {
        "name": "（株）丸本",
        "address": "大井字谷口４",
        "lat": 33.635329,
        "lng": 134.321224
    },
    {
        "name": "鞆浦仲町避難場所",
        "address": "鞆浦字仲町",
        "lat": 33.5924452,
        "lng": 134.3621523
    },
    {
        "name": "城山山下避難所（若宮神社上）",
        "address": "鞆浦字山下",
        "lat": 33.5947395,
        "lng": 134.3597148
    },
    {
        "name": "那佐神社",
        "address": "宍喰浦字那佐３３５",
        "lat": 33.5836023,
        "lng": 134.3261227
    },
    {
        "name": "那佐高台１",
        "address": "宍喰浦字那佐３２９",
        "lat": 33.579798,
        "lng": 134.3366638
    },
    {
        "name": "那佐高台２",
        "address": "宍喰浦字那佐３２９",
        "lat": 33.579798,
        "lng": 134.3366638
    },
    {
        "name": "国道沿高台（那佐高台）",
        "address": "宍喰浦字那佐３２９－１",
        "lat": 33.579798,
        "lng": 134.3366638
    },
    {
        "name": "国道沿高台（豚皇裏高台）",
        "address": "宍喰浦字那佐３２８－１４",
        "lat": 33.5817012,
        "lng": 134.3144997
    },
    {
        "name": "ジャンボ緑風会前広場",
        "address": "久保字板取２４３－３１０",
        "lat": 33.5769475,
        "lng": 134.3067732
    },
    {
        "name": "ホテルリビエラししくい（３階以上）",
        "address": "宍喰浦字松原２２６－１",
        "lat": 33.5680336,
        "lng": 134.3065032
    },
    {
        "name": "八幡神社（宍喰）",
        "address": "久保字久保１－３",
        "lat": 33.570929,
        "lng": 134.302553
    },
    {
        "name": "浄福寺裏山",
        "address": "久保字久保１－１",
        "lat": 33.570929,
        "lng": 134.302553
    },
    {
        "name": "宍喰県民グランド駐車場（～高台）",
        "address": "久保字北田５７－２",
        "lat": 33.575975,
        "lng": 134.298404
    },
    {
        "name": "安養寺高台",
        "address": "久保字安養寺５５－１",
        "lat": 33.5733447,
        "lng": 134.2946518
    },
    {
        "name": "日比原氏神神社",
        "address": "日比原字日比原１４２",
        "lat": 33.5714773,
        "lng": 134.2899208
    },
    {
        "name": "日比原東避難所",
        "address": "日比原字日比原１４９－１",
        "lat": 33.5716802,
        "lng": 134.28461
    },
    {
        "name": "日比原西避難所",
        "address": "日比原字日比原１２８",
        "lat": 33.5716802,
        "lng": 134.28461
    },
    {
        "name": "愛宕神社（宍喰）",
        "address": "宍喰浦字三反田９８",
        "lat": 33.5652107,
        "lng": 134.3008829
    },
    {
        "name": "弁天山（宍喰）",
        "address": "宍喰浦字正梶１８６",
        "lat": 33.5619801,
        "lng": 134.3011788
    },
    {
        "name": "正梶避難所",
        "address": "宍喰浦字正梶１９１－１",
        "lat": 33.5619801,
        "lng": 134.3011788
    },
    {
        "name": "宍喰津波避難タワー",
        "address": "宍喰浦字宍喰２２８－１",
        "lat": 33.5646735,
        "lng": 134.3067158
    },
    {
        "name": "正梶地区高台",
        "address": "宍喰浦字古目６１－３",
        "lat": 33.55835080000001,
        "lng": 134.3065453
    },
    {
        "name": "県道沿高台（旧水床旅館前から高台）",
        "address": "宍喰浦字古目８４－２２",
        "lat": 33.5573575,
        "lng": 134.3120852
    },
    {
        "name": "県道沿高台（金目地区裏山）",
        "address": "宍喰浦字金目９－９",
        "lat": 33.5504223,
        "lng": 134.3081125
    },
    {
        "name": "町道沿高台（金目高台）",
        "address": "宍喰浦字金目５１－３",
        "lat": 33.55253,
        "lng": 134.3130563
    },
    {
        "name": "竹ヶ島神社",
        "address": "宍喰浦字竹ヶ島３４",
        "lat": 33.5432687,
        "lng": 134.3177417
    },
    {
        "name": "竹ヶ島高台（川野宅上高台から遊歩道）",
        "address": "宍喰浦字竹ヶ島３２－１",
        "lat": 33.5448665,
        "lng": 134.318783
    },
    {
        "name": "竹ヶ島高台（民宿竹ヶ島裏山）",
        "address": "宍喰浦字竹ヶ島２８－３",
        "lat": 33.5468553,
        "lng": 134.3175584
    },
    {
        "name": "竹ヶ島高台（戎田宅裏山）",
        "address": "宍喰浦字竹ヶ島",
        "lat": 33.5432687,
        "lng": 134.3177417
    },
    {
        "name": "馳馬避難所",
        "address": "日比原字馳馬",
        "lat": 33.5617297,
        "lng": 134.2917116
    },
    {
        "name": "金目高台",
        "address": "宍喰浦字金目５１－３",
        "lat": 33.55253,
        "lng": 134.3130563
    },
    {
        "name": "大野地区高台",
        "address": "日比原字大野",
        "lat": 33.5675342,
        "lng": 134.2875691
    }
]